[
  {
    "id": "cd-001",
    "name": "Centro de Distribuição São Paulo",
    "address": {
      "street": "Av. Paulista, 1000",
      "city": "São Paulo",
      "state": "SP",
      "zipCode": "01310-100",
      "country": "Brasil",
      "coordinates": {
        "latitude": -23.5613,
        "longitude": -46.6555
      }
    },
    "capacity": 10000,
    "status": "ACTIVE"
  },
  {
    "id": "cd-002", 
    "name": "Centro de Distribuição Rio de Janeiro",
    "address": {
      "street": "Av. Atlântica, 500",
      "city": "Rio de Janeiro", 
      "state": "RJ",
      "zipCode": "22021-001",
      "country": "Brasil",
      "coordinates": {
        "latitude": -22.9711,
        "longitude": -43.1827
      }
    },
    "capacity": 8000,
    "status": "ACTIVE"
  },
  {
    "id": "cd-003",
    "name": "Centro de Distribuição Belo Horizonte",
    "address": {
      "street": "Av. Afonso Pena, 750",
      "city": "Belo Horizonte",
      "state": "MG", 
      "zipCode": "30112-000",
      "country": "Brasil",
      "coordinates": {
        "latitude": -19.9245,
        "longitude": -43.9352
      }
    },
    "capacity": 6000,
    "status": "ACTIVE"
  },
  {
    "id": "cd-004",
    "name": "Centro de Distribuição Curitiba",
    "address": {
      "street": "Rua XV de Novembro, 300",
      "city": "Curitiba",
      "state": "PR",
      "zipCode": "80020-310",
      "country": "Brasil", 
      "coordinates": {
        "latitude": -25.4372,
        "longitude": -49.2619
      }
    },
    "capacity": 5000,
    "status": "ACTIVE"
  },
  {
    "id": "cd-005",
    "name": "Centro de Distribuição Salvador",
    "address": {
      "street": "Av. Sete de Setembro, 200",
      "city": "Salvador",
      "state": "BA",
      "zipCode": "40060-110", 
      "country": "Brasil",
      "coordinates": {
        "latitude": -12.9777,
        "longitude": -38.5016
      }
    },
    "capacity": 7000,
    "status": "ACTIVE"
  }
]